{
  "type": "FeatureCollection",
  "features": [
    {
      "type": "Feature",
      "properties": {
        "month": "мая",
        "img": "",
        "price": "low",
        "name": "Yoga Material",
        "location": "Москва",
        "id": 1,
        "day": "10",
        "rating": 7.9,
        "category": 3
      },
      "geometry": {
        "coordinates": [
          37.59502,
          55.743561
        ],
        "type": "Point"
      }
    },
    {
      "type": "Feature",
      "properties": {
        "month": "мая",
        "img": "",
        "price": "avg",
        "name": "Art Exhibition",
        "location": "Москва",
        "id": 2,
        "day": "15",
        "rating": 8.2,
        "category": 9
      },
      "geometry": {
        "coordinates": [
          37.612259,
          55.752229
        ],
        "type": "Point"
      }
    },
    {
      "type": "Feature",
      "properties": {
        "month": "мая",
        "img": "",
        "price": "high",
        "name": "Concert",
        "location": "Москва",
        "id": 3,
        "day": "20",
        "rating": 9.1,
        "category": 9
      },
      "geometry": {
        "coordinates": [
          37.6175,
          55.7558
        ],
        "type": "Point"
      }
    },
    {
      "type": "Feature",
      "properties": {
        "month": "мая",
        "img": "",
        "price": "low",
        "name": "Art Workshop",
        "location": "Москва",
        "id": 4,
        "day": "12",
        "rating": 7.6,
        "category": 9
      },
      "geometry": {
        "coordinates": [
          37.601638,
          55.7595
        ],
        "type": "Point"
      }
    },
    {
      "type": "Feature",
      "properties": {
        "month": "мая",
        "img": "",
        "price": "avg",
        "name": "Live Music",
        "location": "Москва",
        "id": 5,
        "day": "18",
        "rating": 8.4,
        "category": 9
      },
      "geometry": {
        "coordinates": [
          37.595811,
          55.752906
        ],
        "type": "Point"
      }
    },
    {
      "type": "Feature",
      "properties": {
        "month": "мая",
        "img": "",
        "price": "high",
        "name": "Photography Exhibition",
        "location": "Москва",
        "id": 6,
        "day": "25",
        "rating": 9.3,
        "category": 9
      },
      "geometry": {
        "coordinates": [
          37.603984,
          55.7467
        ],
        "type": "Point"
      }
    },
    {
      "type": "Feature",
      "properties": {
        "month": "мая",
        "img": "",
        "price": "low",
        "name": "Art Class",
        "location": "Москва",
        "id": 7,
        "day": "13",
        "rating": 7.8,
        "category": 9
      },
      "geometry": {
        "coordinates": [
          37.6192,
          55.7491
        ],
        "type": "Point"
      }
    },
    {
      "type": "Feature",
      "properties": {
        "month": "мая",
        "img": "",
        "price": "avg",
        "name": "Sculpture Exhibition",
        "location": "Москва",
        "id": 8,
        "day": "22",
        "rating": 8.6,
        "category": 9
      },
      "geometry": {
        "coordinates": [
          37.6106,
          55.7581
        ],
        "type": "Point"
      }
    },
    {
      "type": "Feature",
      "properties": {
        "month": "мая",
        "img": "",
        "price": "high",
        "name": "Dance Performance",
        "location": "Москва",
        "id": 9,
        "day": "17",
        "rating": 9.2,
        "category": 9
      },
      "geometry": {
        "coordinates": [
          37.5956,
          55.7587
        ],
        "type": "Point"
      }
    },
    {
      "type": "Feature",
      "properties": {
        "month": "мая",
        "img": "",
        "price": "low",
        "name": "Art Talk",
        "location": "Москва",
        "id": 10,
        "day": "14",
        "rating": 8.0,
        "category": 9
      },
      "geometry": {
        "coordinates": [
          37.604,
          55.7522
        ],
        "type": "Point"
      }
    }
  ]
}